[{ "Id": "1", "Date": "26-June-2017", "Address": "Emirates stadium", "Postcode": "N77AJ", "Lat": "51.5541", "Long": "-0.108782"},
{ "Id": "2", "Date": "27-June-2017", "Address": "Emirates stadium", "Postcode": "N7 7AJ", "Lat": "51.5541", "Long": "-0.108782"},
{ "Id": "3", "Date": "28-June-2017", "Address": "Emirates stadium", "Postcode": "N7 7AJ", "Lat": "51.5541", "Long": "-0.108782"},
{ "Id": "4", "Date": "29-June-2017", "Address": "Covent Garden", "Postcode": "WC2E8RF", "Lat": "51.512061", "Long": "-0.122965"},
{ "Id": "5", "Date": "30-June-2017", "Address": "Covent Garden", "Postcode": "WC2E8RF", "Lat": "51.512061", "Long": "-0.122965"},
{ "Id": "6", "Date": "1-July-2017", "Address": "Covent Garden", "Postcode": "WC2E8RF", "Lat": "51.512061", "Long": "-0.122965"},
{ "Id": "7", "Date": "2-July-2017", "Address": "Earls Court Exhibition Centre", "Postcode": "SW59TA", "Lat": "51.489399", "Long": "-0.197416"},
{ "Id": "8", "Date": "3-July-2017", "Address": "Earls Court Exhibition Centre", "Postcode": "SW59TA", "Lat": "51.489399", "Long": "-0.197416"},
{ "Id": "9", "Date": "4-July-2017", "Address": "Earls Court Exhibition Centre", "Postcode": "SW59TA", "Lat": "51.489399", "Long": "-0.197416"},
{ "Id": "10", "Date": "5-July-2017", "Address": "Natural History Museum", "Postcode": "SW75BD", "Lat": "51.496563", "Long": "-0.176892"},
{ "Id": "11", "Date": "6-July-2017", "Address": "Natural History Museum", "Postcode": "SW75BD", "Lat": "51.496563", "Long": "-0.176892"},
{ "Id": "12", "Date": "7-July-2017", "Address": "Natural History Museum", "Postcode": "SW75BD", "Lat": "51.496563", "Long": "-0.176892"},
{ "Id": "13", "Date": "8-July-2017", "Address": "London Stadium, Stratford", "Postcode": "E202ST", "Lat": "51.538654", "Long": "-0.016509"},
{ "Id": "14", "Date": "9-July-2017", "Address": "London Stadium, Stratford", "Postcode": "E202ST", "Lat": "51.538654", "Long": "-0.016509"},
{ "Id": "15", "Date": "10-July-2017", "Address": "London Stadium, Stratford", "Postcode": "E202ST", "Lat": "51.538654", "Long": "-0.016509"},
{ "Id": "16", "Date": "11-July-2017", "Address": "Old Trafford stadium", "Postcode": "M160RA", "Lat": "53.462559", "Long": "-2.291032"},
{ "Id": "17", "Date": "12-July-2017", "Address": "Old Trafford stadium", "Postcode": "M160RA", "Lat": "53.462559", "Long": "-2.291032"},
{ "Id": "18", "Date": "13-July-2017", "Address": "Old Trafford stadium", "Postcode": "M160RA", "Lat": "53.462559", "Long": "-2.291032"},
{ "Id": "19", "Date": "14-July-2017", "Address": "Manchester Arndale Centre", "Postcode": "M41AZ", "Lat": "53.48395", "Long": "-2.239264"},
{ "Id": "20", "Date": "15-July-2017", "Address": "Manchester Arndale Centre", "Postcode": "M41AZ", "Lat": "53.48395", "Long": "-2.239264"},
{ "Id": "21", "Date": "16-July-2017", "Address": "Manchester Arndale Centre", "Postcode": "M41AZ", "Lat": "53.48395", "Long": "-2.239264"},
{ "Id": "22", "Date": "17-July-2017", "Address": "Etihad Stadium", "Postcode": "M113FF", "Lat": "53.484593", "Long": "-2.202694"},
{ "Id": "23", "Date": "18-July-2017", "Address": "Etihad Stadium", "Postcode": "M113FF", "Lat": "53.484593", "Long": "-2.202694"},
{ "Id": "24", "Date": "19-July-2017", "Address": "Etihad Stadium", "Postcode": "M113FF", "Lat": "53.484593", "Long": "-2.202694"},
{ "Id": "25", "Date": "20-July-2017", "Address": "Trafford Centre", "Postcode": "M178AA", "Lat": "53.466179", "Long": "-2.349005"},
{ "Id": "26", "Date": "21-July-2017", "Address": "Trafford Centre", "Postcode": "M178AA", "Lat": "53.466179", "Long": "-2.349005"},
{ "Id": "27", "Date": "22-July-2017", "Address": "Trafford Centre", "Postcode": "M178AA", "Lat": "53.466179", "Long": "-2.349005"},
{ "Id": "28", "Date": "23-July-2017", "Address": "Altrincham Leisure Centre", "Postcode": "WA158EW", "Lat": "53.388213", "Long": "-2.34572"},
{ "Id": "29", "Date": "24-July-2017", "Address": "Altrincham Leisure Centre", "Postcode": "WA158EW", "Lat": "53.388213", "Long": "-2.34572"},
{ "Id": "30", "Date": "25-July-2017", "Address": "Altrincham Leisure Centre", "Postcode": "WA158EW", "Lat": "53.388213", "Long": "-2.34572"},
{ "Id": "31", "Date": "26-July-2017", "Address": "York Coppergate shopping centre", "Postcode": "YO19NT", "Lat": "53.957649", "Long": "-1.080128"},
{ "Id": "32", "Date": "27-July-2017", "Address": "York Coppergate shopping centre", "Postcode": "YO19NT", "Lat": "53.957649", "Long": "-1.080128"},
{ "Id": "33", "Date": "28-July-2017", "Address": "York Coppergate shopping centre", "Postcode": "YO19NT", "Lat": "53.957649", "Long": "-1.080128"},
{ "Id": "34", "Date": "29-July-2017", "Address": "York railway station", "Postcode": "YO241AB", "Lat": "53.958296", "Long": "-1.093022"},
{ "Id": "35", "Date": "30-July-2017", "Address": "York railway station", "Postcode": "YO241AB", "Lat": "53.958296", "Long": "-1.093022"},
{ "Id": "36", "Date": "31-July-2017", "Address": "York railway station", "Postcode": "YO241AB", "Lat": "53.958296", "Long": "-1.093022"},
{ "Id": "37", "Date": "1-August-2017", "Address": "National Railway Museum", "Postcode": "YO264XJ", "Lat": "53.960767", "Long": "-1.096551"},
{ "Id": "38", "Date": "2-August-2017", "Address": "National Railway Museum", "Postcode": "YO264XJ", "Lat": "53.960767", "Long": "-1.096551"},
{ "Id": "39", "Date": "3-August-2017", "Address": "National Railway Museum", "Postcode": "YO264XJ", "Lat": "53.960767", "Long": "-1.096551"},
{ "Id": "40", "Date": "4-August-2017", "Address": "York City Football Club", "Postcode": "YO307AQ", "Lat": "53.968782", "Long": "-1.087901"},
{ "Id": "41", "Date": "5-August-2017", "Address": "York City Football Club", "Postcode": "YO307AQ", "Lat": "53.968782", "Long": "-1.087901"},
{ "Id": "42", "Date": "6-August-2017", "Address": "York City Football Club", "Postcode": "YO307AQ", "Lat": "53.968782", "Long": "-1.087901"},
{ "Id": "43", "Date": "7-August-2017", "Address": "York Museum Gardens", "Postcode": "YO17FR", "Lat": "53.961795", "Long": "-1.087444"},
{ "Id": "44", "Date": "8-August-2017", "Address": "York Museum Gardens", "Postcode": "YO17FR", "Lat": "53.961795", "Long": "-1.087444"},
{ "Id": "45", "Date": "9-August-2017", "Address": "York Museum Gardens", "Postcode": "YO17FR", "Lat": "53.961795", "Long": "-1.087444"}]
