[{"Id":3,"Date":"2017-06-28T00:00:00","Address":"Emirates stadium","Postcode":"N7 7AJ","Lat":51.5541,"Long":-0.108782},{"Id":4,"Date":"2017-06-29T00:00:00","Address":"Covent Garden","Postcode":"WC2E8RF","Lat":51.512061,"Long":-0.122965},{"Id":5,"Date":"2017-06-30T00:00:00","Address":"Covent Garden","Postcode":"WC2E8RF","Lat":51.512061,"Long":-0.122965},{"Id":6,"Date":"2017-07-01T00:00:00","Address":"Covent Garden","Postcode":"WC2E8RF","Lat":51.512061,"Long":-0.122965},{"Id":7,"Date":"2017-07-02T00:00:00","Address":"Earls Court Exhibition Centre","Postcode":"SW59TA","Lat":51.489399,"Long":-0.197416},{"Id":8,"Date":"2017-07-03T00:00:00","Address":"Earls Court Exhibition Centre","Postcode":"SW59TA","Lat":51.489399,"Long":-0.197416},{"Id":9,"Date":"2017-07-04T00:00:00","Address":"Earls Court Exhibition Centre","Postcode":"SW59TA","Lat":51.489399,"Long":-0.197416},{"Id":10,"Date":"2017-07-05T00:00:00","Address":"Natural History Museum","Postcode":"SW75BD","Lat":51.496563,"Long":-0.176892},{"Id":11,"Date":"2017-07-06T00:00:00","Address":"Natural History Museum","Postcode":"SW75BD","Lat":51.496563,"Long":-0.176892},{"Id":12,"Date":"2017-07-07T00:00:00","Address":"Natural History Museum","Postcode":"SW75BD","Lat":51.496563,"Long":-0.176892},{"Id":13,"Date":"2017-07-08T00:00:00","Address":"London Stadium, Stratford","Postcode":"E202ST","Lat":51.538654,"Long":-0.016509},{"Id":14,"Date":"2017-07-09T00:00:00","Address":"London Stadium, Stratford","Postcode":"E202ST","Lat":51.538654,"Long":-0.016509},{"Id":15,"Date":"2017-07-10T00:00:00","Address":"London Stadium, Stratford","Postcode":"E202ST","Lat":51.538654,"Long":-0.016509},{"Id":16,"Date":"2017-07-11T00:00:00","Address":"Old Trafford stadium","Postcode":"M160RA","Lat":53.462559,"Long":-2.291032},{"Id":17,"Date":"2017-07-12T00:00:00","Address":"Old Trafford stadium","Postcode":"M160RA","Lat":53.462559,"Long":-2.291032},{"Id":18,"Date":"2017-07-13T00:00:00","Address":"Old Trafford stadium","Postcode":"M160RA","Lat":53.462559,"Long":-2.291032},{"Id":19,"Date":"2017-07-14T00:00:00","Address":"Manchester Arndale Centre","Postcode":"M41AZ","Lat":53.48395,"Long":-2.239264},{"Id":20,"Date":"2017-07-15T00:00:00","Address":"Manchester Arndale Centre","Postcode":"M41AZ","Lat":53.48395,"Long":-2.239264},{"Id":21,"Date":"2017-07-16T00:00:00","Address":"Manchester Arndale Centre","Postcode":"M41AZ","Lat":53.48395,"Long":-2.239264},{"Id":22,"Date":"2017-07-17T00:00:00","Address":"Etihad Stadium","Postcode":"M113FF","Lat":53.484593,"Long":-2.202694},{"Id":23,"Date":"2017-07-18T00:00:00","Address":"Etihad Stadium","Postcode":"M113FF","Lat":53.484593,"Long":-2.202694},{"Id":24,"Date":"2017-07-19T00:00:00","Address":"Etihad Stadium","Postcode":"M113FF","Lat":53.484593,"Long":-2.202694},{"Id":25,"Date":"2017-07-20T00:00:00","Address":"Trafford Centre","Postcode":"M178AA","Lat":53.466179,"Long":-2.349005},{"Id":26,"Date":"2017-07-21T00:00:00","Address":"Trafford Centre","Postcode":"M178AA","Lat":53.466179,"Long":-2.349005},{"Id":27,"Date":"2017-07-22T00:00:00","Address":"Trafford Centre","Postcode":"M178AA","Lat":53.466179,"Long":-2.349005},{"Id":28,"Date":"2017-07-23T00:00:00","Address":"Altrincham Leisure Centre","Postcode":"WA158EW","Lat":53.388213,"Long":-2.34572},{"Id":29,"Date":"2017-07-24T00:00:00","Address":"Altrincham Leisure Centre","Postcode":"WA158EW","Lat":53.388213,"Long":-2.34572},{"Id":30,"Date":"2017-07-25T00:00:00","Address":"Altrincham Leisure Centre","Postcode":"WA158EW","Lat":53.388213,"Long":-2.34572},{"Id":31,"Date":"2017-07-26T00:00:00","Address":"York Coppergate shopping centre","Postcode":"YO19NT","Lat":53.957649,"Long":-1.080128},{"Id":32,"Date":"2017-07-27T00:00:00","Address":"York Coppergate shopping centre","Postcode":"YO19NT","Lat":53.957649,"Long":-1.080128},{"Id":33,"Date":"2017-07-28T00:00:00","Address":"York Coppergate shopping centre","Postcode":"YO19NT","Lat":53.957649,"Long":-1.080128},{"Id":34,"Date":"2017-07-29T00:00:00","Address":"York railway station","Postcode":"YO241AB","Lat":53.958296,"Long":-1.093022},{"Id":35,"Date":"2017-07-30T00:00:00","Address":"York railway station","Postcode":"YO241AB","Lat":53.958296,"Long":-1.093022},{"Id":36,"Date":"2017-07-31T00:00:00","Address":"York railway station","Postcode":"YO241AB","Lat":53.958296,"Long":-1.093022},{"Id":37,"Date":"2017-08-01T00:00:00","Address":"National Railway Museum","Postcode":"YO264XJ","Lat":53.960767,"Long":-1.096551},{"Id":38,"Date":"2017-08-02T00:00:00","Address":"National Railway Museum","Postcode":"YO264XJ","Lat":53.960767,"Long":-1.096551},{"Id":39,"Date":"2017-08-03T00:00:00","Address":"National Railway Museum","Postcode":"YO264XJ","Lat":53.960767,"Long":-1.096551},{"Id":40,"Date":"2017-08-04T00:00:00","Address":"York City Football Club","Postcode":"YO307AQ","Lat":53.968782,"Long":-1.087901},{"Id":41,"Date":"2017-08-05T00:00:00","Address":"York City Football Club","Postcode":"YO307AQ","Lat":53.968782,"Long":-1.087901},{"Id":42,"Date":"2017-08-06T00:00:00","Address":"York City Football Club","Postcode":"YO307AQ","Lat":53.968782,"Long":-1.087901},{"Id":43,"Date":"2017-08-07T00:00:00","Address":"York Museum Gardens","Postcode":"YO17FR","Lat":53.961795,"Long":-1.087444},{"Id":44,"Date":"2017-08-08T00:00:00","Address":"York Museum Gardens","Postcode":"YO17FR","Lat":53.961795,"Long":-1.087444},{"Id":1,"Date":"2017-06-26T00:00:00","Address":"Emirates stadium","Postcode":"N77AJ","Lat":51.5541,"Long":-0.108782},{"Id":45,"Date":"2017-08-09T00:00:00","Address":"York Museum Garden","Postcode":"YO17FR","Lat":53.961795,"Long":-1.087444},{"Id":2,"Date":"2017-06-27T00:00:00","Address":"Emirates stadium","Postcode":"N7 7AJ","Lat":51.5541,"Long":-0.108782}]